[
    {
        "id": "385200",
        "city": "Адыгейск",
        "latitude": "44.8783715",
        "longitude": "39.190172"
    },
    {
        "id": "385000",
        "city": "Майкоп",
        "latitude": "44.6098268",
        "longitude": "40.1006527"
    },
    {
        "id": "649000",
        "city": "Горно-Алтайск",
        "latitude": "51.9582681",
        "longitude": "85.9602957"
    },
    {
        "id": "658125",
        "city": "Алейск",
        "latitude": "52.4920914",
        "longitude": "82.7794145"
    },
    {
        "id": "656000",
        "city": "Барнаул",
        "latitude": "53.3481145",
        "longitude": "83.7798362"
    },
    {
        "id": "659900",
        "city": "Белокуриха",
        "latitude": "51.9960534",
        "longitude": "84.9840343"
    },
    {
        "id": "659300",
        "city": "Бийск",
        "latitude": "52.5393683",
        "longitude": "85.2138852"
    },
    {
        "id": "658420",
        "city": "Горняк",
        "latitude": "50.9979032",
        "longitude": "81.4643059"
    },
    {
        "id": "659100",
        "city": "Заринск",
        "latitude": "53.7063495",
        "longitude": "84.9314703"
    },
    {
        "id": "658480",
        "city": "Змеиногорск",
        "latitude": "51.1580235",
        "longitude": "82.1872476"
    },
    {
        "id": "658700",
        "city": "Камень-на-Оби",
        "latitude": "53.7915454",
        "longitude": "81.3545173"
    },
    {
        "id": "658041",
        "city": "Новоалтайск",
        "latitude": "53.4120811",
        "longitude": "83.9311249"
    },
    {
        "id": "658200",
        "city": "Рубцовск",
        "latitude": "51.5013075",
        "longitude": "81.2077729"
    },
    {
        "id": "658820",
        "city": "Славгород",
        "latitude": "52.9993053",
        "longitude": "78.6459674"
    },
    {
        "id": "658837",
        "city": "Яровое",
        "latitude": "52.9251728",
        "longitude": "78.5729898"
    },
    {
        "id": "676805",
        "city": "Белогорск",
        "latitude": "50.9212235",
        "longitude": "128.4738742"
    },
    {
        "id": "675000",
        "city": "Благовещенск",
        "latitude": "50.2905935",
        "longitude": "127.5272186"
    },
    {
        "id": "676870",
        "city": "Завитинск",
        "latitude": "50.1064678",
        "longitude": "129.4392897"
    },
    {
        "id": "676151",
        "city": "Зея",
        "latitude": "53.7339151",
        "longitude": "127.2658079"
    },
    {
        "id": "676770",
        "city": "Райчихинск",
        "latitude": "49.7941882",
        "longitude": "129.4112149"
    },
    {
        "id": "676450",
        "city": "Свободный",
        "latitude": "51.361264",
        "longitude": "128.1218995"
    },
    {
        "id": "676011",
        "city": "Сковородино",
        "latitude": "53.9871004",
        "longitude": "123.943729"
    },
    {
        "id": "676280",
        "city": "Тында",
        "latitude": "55.1546401",
        "longitude": "124.7468634"
    },
    {
        "id": "676470",
        "city": "Циолковский",
        "latitude": "51.7624346",
        "longitude": "128.121972"
    },
    {
        "id": "676301",
        "city": "Шимановск",
        "latitude": "52.0052856",
        "longitude": "127.7006559"
    },
    {
        "id": "163000",
        "city": "Архангельск",
        "latitude": "64.5392985",
        "longitude": "40.5170083"
    },
    {
        "id": "165150",
        "city": "Вельск",
        "latitude": "61.0660057",
        "longitude": "42.1032858"
    },
    {
        "id": "164110",
        "city": "Каргополь",
        "latitude": "61.5008762",
        "longitude": "38.9636415"
    },
    {
        "id": "165650",
        "city": "Коряжма",
        "latitude": "61.2885993",
        "longitude": "47.1002315"
    },
    {
        "id": "165300",
        "city": "Котлас",
        "latitude": "61.2529842",
        "longitude": "46.6331915"
    },
    {
        "id": "164750",
        "city": "Мезень",
        "latitude": "65.8398386",
        "longitude": "44.2531865"
    },
    {
        "id": "164170",
        "city": "Мирный",
        "latitude": "62.7644267",
        "longitude": "40.3359976"
    },
    {
        "id": "164900",
        "city": "Новодвинск",
        "latitude": "64.4136023",
        "longitude": "40.8208003"
    },
    {
        "id": "164200",
        "city": "Няндома",
        "latitude": "61.6653735",
        "longitude": "40.2061699"
    },
    {
        "id": "164840",
        "city": "Онега",
        "latitude": "63.9163966",
        "longitude": "38.0805749"
    },
    {
        "id": "164500",
        "city": "Северодвинск",
        "latitude": "64.56253",
        "longitude": "39.8182715"
    },
    {
        "id": "165330",
        "city": "Сольвычегодск",
        "latitude": "61.3318091",
        "longitude": "46.920351"
    },
    {
        "id": "165160",
        "city": "Шенкурск",
        "latitude": "62.1057423",
        "longitude": "42.89959"
    },
    {
        "id": "414000",
        "city": "Астрахань",
        "latitude": "46.3655808",
        "longitude": "48.0559979"
    },
    {
        "id": "416500",
        "city": "Ахтубинск",
        "latitude": "48.2753078",
        "longitude": "46.1906741"
    },
    {
        "id": "416540",
        "city": "Знаменск",
        "latitude": "48.5865618",
        "longitude": "45.7367908"
    },
    {
        "id": "416340",
        "city": "Камызяк",
        "latitude": "46.1105429",
        "longitude": "48.0732724"
    },
    {
        "id": "416111",
        "city": "Нариманов",
        "latitude": "46.6916597",
        "longitude": "47.8501624"
    },
    {
        "id": "416010",
        "city": "Харабали",
        "latitude": "47.4089187",
        "longitude": "47.2524467"
    },
    {
        "id": "452920",
        "city": "Агидель",
        "latitude": "55.89976",
        "longitude": "53.9221149"
    },
    {
        "id": "453630",
        "city": "Баймак",
        "latitude": "52.5912632",
        "longitude": "58.3111995"
    },
    {
        "id": "452000",
        "city": "Белебей",
        "latitude": "54.1033832",
        "longitude": "54.1111878"
    },
    {
        "id": "453500",
        "city": "Белорецк",
        "latitude": "53.9675927",
        "longitude": "58.4099562"
    },
    {
        "id": "452450",
        "city": "Бирск",
        "latitude": "55.4157107",
        "longitude": "55.5582335"
    },
    {
        "id": "453430",
        "city": "Благовещенск",
        "latitude": "55.0499592",
        "longitude": "55.955309"
    },
    {
        "id": "453400",
        "city": "Давлеканово",
        "latitude": "54.2227617",
        "longitude": "55.0313419"
    },
    {
        "id": "452320",
        "city": "Дюртюли",
        "latitude": "55.4848047",
        "longitude": "54.8524875"
    },
    {
        "id": "453200",
        "city": "Ишимбай",
        "latitude": "53.4546314",
        "longitude": "56.043874"
    },
    {
        "id": "453300",
        "city": "Кумертау",
        "latitude": "52.7565537",
        "longitude": "55.7969915"
    },
    {
        "id": "453570",
        "city": "Межгорье",
        "latitude": "54.239683",
        "longitude": "57.96146"
    },
    {
        "id": "453853",
        "city": "Мелеуз",
        "latitude": "52.9590637",
        "longitude": "55.9283483"
    },
    {
        "id": "452680",
        "city": "Нефтекамск",
        "latitude": "56.0883075",
        "longitude": "54.2483391"
    },
    {
        "id": "452601",
        "city": "Октябрьский",
        "latitude": "54.4815344",
        "longitude": "53.4656611"
    },
    {
        "id": "453250",
        "city": "Салават",
        "latitude": "53.3616311",
        "longitude": "55.9245559"
    },
    {
        "id": "453830",
        "city": "Сибай",
        "latitude": "52.7205811",
        "longitude": "58.6663303"
    },
    {
        "id": "453100",
        "city": "Стерлитамак",
        "latitude": "53.6302498",
        "longitude": "55.9315707"
    },
    {
        "id": "452750",
        "city": "Туймазы",
        "latitude": "54.5999889",
        "longitude": "53.6949081"
    },
    {
        "id": "450000",
        "city": "Уфа",
        "latitude": "54.734853",
        "longitude": "55.9578647"
    },
    {
        "id": "453700",
        "city": "Учалы",
        "latitude": "54.3066965",
        "longitude": "59.4126559"
    },
    {
        "id": "452800",
        "city": "Янаул",
        "latitude": "56.2650336",
        "longitude": "54.9298314"
    },
    {
        "id": "309850",
        "city": "Алексеевка",
        "latitude": "50.6299932",
        "longitude": "38.6881776"
    },
    {
        "id": "308000",
        "city": "Белгород",
        "latitude": "50.5977351",
        "longitude": "36.5858236"
    },
    {
        "id": "309910",
        "city": "Бирюч",
        "latitude": "50.6483899",
        "longitude": "38.4006203"
    },
    {
        "id": "309990",
        "city": "Валуйки",
        "latitude": "50.2112799",
        "longitude": "38.0998765"
    },
    {
        "id": "309370",
        "city": "Грайворон",
        "latitude": "50.4862699",
        "longitude": "35.6662957"
    },
    {
        "id": "309180",
        "city": "Губкин",
        "latitude": "51.2836362",
        "longitude": "37.5347608"
    },
    {
        "id": "309210",
        "city": "Короча",
        "latitude": "50.8130123",
        "longitude": "37.1896543"
    },
    {
        "id": "309640",
        "city": "Новый Оскол",
        "latitude": "50.7635162",
        "longitude": "37.8774026"
    },
    {
        "id": "309500",
        "city": "Старый Оскол",
        "latitude": "51.2965991",
        "longitude": "37.8349849"
    },
    {
        "id": "309070",
        "city": "Строитель",
        "latitude": "50.7845571",
        "longitude": "36.4886619"
    },
    {
        "id": "309290",
        "city": "Шебекино",
        "latitude": "50.4005506",
        "longitude": "36.8877988"
    },
    {
        "id": "241000",
        "city": "Брянск",
        "latitude": "53.2420071",
        "longitude": "34.3652716"
    },
    {
        "id": "242600",
        "city": "Дятьково",
        "latitude": "53.5958283",
        "longitude": "34.355092"
    },
    {
        "id": "242700",
        "city": "Жуковка",
        "latitude": "53.5341219",
        "longitude": "33.7302166"
    },
    {
        "id": "243600",
        "city": "Злынка",
        "latitude": "52.4265906",
        "longitude": "31.7360386"
    },
    {
        "id": "242500",
        "city": "Карачев",
        "latitude": "53.1297194",
        "longitude": "34.9887859"
    },
    {
        "id": "243140",
        "city": "Клинцы",
        "latitude": "52.7529052",
        "longitude": "32.2339161"
    },
    {
        "id": "243220",
        "city": "Мглин",
        "latitude": "53.0600644",
        "longitude": "32.8467217"
    },
    {
        "id": "243020",
        "city": "Новозыбков",
        "latitude": "52.5371426",
        "longitude": "31.9356826"
    },
    {
        "id": "243400",
        "city": "Почеп",
        "latitude": "52.9154724",
        "longitude": "33.4744608"
    },
    {
        "id": "242440",
        "city": "Севск",
        "latitude": "52.1484215",
        "longitude": "34.4918198"
    },
    {
        "id": "241550",
        "city": "Сельцо",
        "latitude": "53.3738801",
        "longitude": "34.1059226"
    },
    {
        "id": "243240",
        "city": "Стародуб",
        "latitude": "52.5851881",
        "longitude": "32.7603628"
    },
    {
        "id": "243500",
        "city": "Сураж",
        "latitude": "53.0171239",
        "longitude": "32.3938351"
    },
    {
        "id": "242220",
        "city": "Трубчевск",
        "latitude": "52.5791314",
        "longitude": "33.7660013"
    },
    {
        "id": "243300",
        "city": "Унеча",
        "latitude": "52.8460665",
        "longitude": "32.6757071"
    },
    {
        "id": "242610",
        "city": "Фокино",
        "latitude": "53.4554552",
        "longitude": "34.4158537"
    },
    {
        "id": "671230",
        "city": "Бабушкин",
        "latitude": "51.7113066",
        "longitude": "105.8673633"
    },
    {
        "id": "671160",
        "city": "Гусиноозерск",
        "latitude": "51.2865751",
        "longitude": "106.5230732"
    },
    {
        "id": "671950",
        "city": "Закаменск",
        "latitude": "50.3726774",
        "longitude": "103.2867452"
    },
    {
        "id": "671840",
        "city": "Кяхта",
        "latitude": "50.3466291",
        "longitude": "106.4534938"
    },
    {
        "id": "671700",
        "city": "Северобайкальск",
        "latitude": "55.6357165",
        "longitude": "109.3362606"
    },
    {
        "id": "670000",
        "city": "Улан-Удэ",
        "latitude": "51.8334378",
        "longitude": "107.5841511"
    },
    {
        "id": "601650",
        "city": "Александров",
        "latitude": "56.3919652",
        "longitude": "38.711035"
    },
    {
        "id": "600000",
        "city": "Владимир",
        "latitude": "56.1281561",
        "longitude": "40.4082995"
    },
    {
        "id": "601440",
        "city": "Вязники",
        "latitude": "56.2976528",
        "longitude": "42.2687311"
    },
    {
        "id": "601480",
        "city": "Гороховец",
        "latitude": "56.2021059",
        "longitude": "42.692517"
    },
    {
        "id": "601500",
        "city": "Гусь-Хрустальный",
        "latitude": "55.6198065",
        "longitude": "40.6578769"
    },
    {
        "id": "601300",
        "city": "Камешково",
        "latitude": "56.3488712",
        "longitude": "40.9955682"
    },
    {
        "id": "601640",
        "city": "Карабаново",
        "latitude": "56.3133447",
        "longitude": "38.7034267"
    },
    {
        "id": "601010",
        "city": "Киржач",
        "latitude": "56.1485263",
        "longitude": "38.8635035"
    },
    {
        "id": "601900",
        "city": "Ковров",
        "latitude": "56.3553895",
        "longitude": "41.3169568"
    },
    {
        "id": "601780",
        "city": "Кольчугино",
        "latitude": "56.3327616",
        "longitude": "39.391201"
    },
    {
        "id": "601110",
        "city": "Костерево",
        "latitude": "55.9336424",
        "longitude": "39.624822"
    },
    {
        "id": "601570",
        "city": "Курлово",
        "latitude": "55.4525994",
        "longitude": "40.6124362"
    },
    {
        "id": "601240",
        "city": "Лакинск",
        "latitude": "56.0180614",
        "longitude": "39.9564706"
    },
    {
        "id": "602101",
        "city": "Меленки",
        "latitude": "55.3387017",
        "longitude": "41.634124"
    },
    {
        "id": "602205",
        "city": "Муром",
        "latitude": "55.5632276",
        "longitude": "42.023006"
    },
    {
        "id": "601140",
        "city": "Петушки",
        "latitude": "55.9297657",
        "longitude": "39.4507913"
    },
    {
        "id": "601120",
        "city": "Покров",
        "latitude": "55.9167118",
        "longitude": "39.1733641"
    },
    {
        "id": "600910",
        "city": "Радужный",
        "latitude": "55.9961034",
        "longitude": "40.3323247"
    },
    {
        "id": "601201",
        "city": "Собинка",
        "latitude": "55.993798",
        "longitude": "40.0180034"
    },
    {
        "id": "601670",
        "city": "Струнино",
        "latitude": "56.3750001",
        "longitude": "38.583938"
    },
    {
        "id": "601351",
        "city": "Судогда",
        "latitude": "55.949897",
        "longitude": "40.8563392"
    },
    {
        "id": "601291",
        "city": "Суздаль",
        "latitude": "56.4273814",
        "longitude": "40.4525581"
    },
    {
        "id": "601800",
        "city": "Юрьев-Польский",
        "latitude": "56.4938067",
        "longitude": "39.6679311"
    },
    {
        "id": "400000",
        "city": "Волгоград",
        "latitude": "48.7072005",
        "longitude": "44.5170207"
    },
    {
        "id": "404100",
        "city": "Волжский",
        "latitude": "48.7978483",
        "longitude": "44.7462417"
    },
    {
        "id": "404002",
        "city": "Дубовка",
        "latitude": "49.0555342",
        "longitude": "44.8270813"
    },
    {
        "id": "403790",
        "city": "Жирновск",
        "latitude": "50.9767561",
        "longitude": "44.7857694"
    },
    {
        "id": "404500",
        "city": "Калач-на-Дону",
        "latitude": "48.6887569",
        "longitude": "43.5306866"
    },
    {
        "id": "403870",
        "city": "Камышин",
        "latitude": "50.0651261",
        "longitude": "45.3843816"
    },
    {
        "id": "404350",
        "city": "Котельниково",
        "latitude": "47.6310808",
        "longitude": "43.1331198"
    },
    {
        "id": "403801",
        "city": "Котово",
        "latitude": "50.3205433",
        "longitude": "44.8031864"
    },
    {
        "id": "404160",
        "city": "Краснослободск",
        "latitude": "48.7068777",
        "longitude": "44.5631799"
    },
    {
        "id": "404620",
        "city": "Ленинск",
        "latitude": "48.6936234",
        "longitude": "45.1992835"
    },
    {
        "id": "403340",
        "city": "Михайловка",
        "latitude": "50.0708749",
        "longitude": "43.2400847"
    },
    {
        "id": "404030",
        "city": "Николаевск",
        "latitude": "50.0166952",
        "longitude": "45.4733204"
    },
    {
        "id": "403950",
        "city": "Новоаннинский",
        "latitude": "50.5296873",
        "longitude": "42.6666038"
    },
    {
        "id": "404260",
        "city": "Палласовка",
        "latitude": "50.0501422",
        "longitude": "46.8803355"
    },
    {
        "id": "403840",
        "city": "Петров Вал",
        "latitude": "50.1380355",
        "longitude": "45.2091455"
    },
    {
        "id": "403441",
        "city": "Серафимович",
        "latitude": "49.566286",
        "longitude": "42.7360013"
    },
    {
        "id": "404410",
        "city": "Суровикино",
        "latitude": "48.6189756",
        "longitude": "42.8541308"
    },
    {
        "id": "403110",
        "city": "Урюпинск",
        "latitude": "50.7904767",
        "longitude": "42.0288589"
    },
    {
        "id": "403530",
        "city": "Фролово",
        "latitude": "49.7647809",
        "longitude": "43.6648936"
    },
    {
        "id": "162480",
        "city": "Бабаево",
        "latitude": "59.389309",
        "longitude": "35.9378318"
    },
    {
        "id": "161200",
        "city": "Белозерск",
        "latitude": "60.0307914",
        "longitude": "37.7891123"
    },
    {
        "id": "162390",
        "city": "Великий Устюг",
        "latitude": "60.7603243",
        "longitude": "46.3053893"
    },
    {
        "id": "160000",
        "city": "Вологда",
        "latitude": "59.2484186",
        "longitude": "39.8356461"
    },
    {
        "id": "162900",
        "city": "Вытегра",
        "latitude": "61.0064157",
        "longitude": "36.4495835"
    },
    {
        "id": "162000",
        "city": "Грязовец",
        "latitude": "58.8757657",
        "longitude": "40.248477"
    },
    {
        "id": "162107",
        "city": "Кадников",
        "latitude": "59.5037947",
        "longitude": "40.3440473"
    },
    {
        "id": "161100",
        "city": "Кириллов",
        "latitude": "59.8590353",
        "longitude": "38.3749854"
    },
    {
        "id": "162341",
        "city": "Красавино",
        "latitude": "60.9613991",
        "longitude": "46.481465"
    },
    {
        "id": "161440",
        "city": "Никольск",
        "latitude": "59.5350162",
        "longitude": "45.4575468"
    },
    {
        "id": "162129",
        "city": "Сокол",
        "latitude": "59.4759156",
        "longitude": "40.1114414"
    },
    {
        "id": "161300",
        "city": "Тотьма",
        "latitude": "59.9735051",
        "longitude": "42.7589701"
    },
    {
        "id": "162840",
        "city": "Устюжна",
        "latitude": "58.8383671",
        "longitude": "36.4425046"
    },
    {
        "id": "162250",
        "city": "Харовск",
        "latitude": "59.9477728",
        "longitude": "40.2000794"
    },
    {
        "id": "162600",
        "city": "Череповец",
        "latitude": "59.1269214",
        "longitude": "37.9092243"
    },
    {
        "id": "397700",
        "city": "Бобров",
        "latitude": "51.0902048",
        "longitude": "40.0320014"
    },
    {
        "id": "396790",
        "city": "Богучар",
        "latitude": "49.9352997",
        "longitude": "40.5592467"
    },
    {
        "id": "397160",
        "city": "Борисоглебск",
        "latitude": "51.3654619",
        "longitude": "42.100947"
    },
    {
        "id": "397500",
        "city": "Бутурлиновка",
        "latitude": "50.8313227",
        "longitude": "40.5977541"
    },
    {
        "id": "394000",
        "city": "Воронеж",
        "latitude": "51.6592378",
        "longitude": "39.1968284"
    },
    {
        "id": "397600",
        "city": "Калач",
        "latitude": "50.4241213",
        "longitude": "41.0162858"
    },
    {
        "id": "397900",
        "city": "Лиски",
        "latitude": "50.9944734",
        "longitude": "39.518302"
    },
    {
        "id": "396070",
        "city": "Нововоронеж",
        "latitude": "51.3092463",
        "longitude": "39.2162865"
    },
    {
        "id": "397400",
        "city": "Новохоперск",
        "latitude": "51.0953461",
        "longitude": "41.6173714"
    },
    {
        "id": "397837",
        "city": "Острогожск",
        "latitude": "50.8678083",
        "longitude": "39.0406398"
    },
    {
        "id": "396420",
        "city": "Павловск",
        "latitude": "50.4533684",
        "longitude": "40.1369087"
    },
    {
        "id": "397350",
        "city": "Поворино",
        "latitude": "51.1953446",
        "longitude": "42.2472432"
    },
    {
        "id": "396650",
        "city": "Россошь",
        "latitude": "50.170089",
        "longitude": "39.6225534"
    },
    {
        "id": "396900",
        "city": "Семилуки",
        "latitude": "51.6951846",
        "longitude": "39.0189797"
    },
    {
        "id": "397030",
        "city": "Эртиль",
        "latitude": "51.831024",
        "longitude": "40.8074054"
    },
    {
        "id": "368220",
        "city": "Буйнакск",
        "latitude": "42.8213799",
        "longitude": "47.1164452"
    },
    {
        "id": "368670",
        "city": "Дагестанские Огни",
        "latitude": "42.1151021",
        "longitude": "48.1939983"
    },
    {
        "id": "368000",
        "city": "Дербент",
        "latitude": "42.058935",
        "longitude": "48.2908653"
    },
    {
        "id": "368500",
        "city": "Избербаш",
        "latitude": "42.565098",
        "longitude": "47.871002"
    },
    {
        "id": "368300",
        "city": "Каспийск",
        "latitude": "42.8916599",
        "longitude": "47.6366674"
    },
    {
        "id": "368120",
        "city": "Кизилюрт",
        "latitude": "43.2039094",
        "longitude": "46.8729311"
    },
    {
        "id": "368830",
        "city": "Кизляр",
        "latitude": "43.8483915",
        "longitude": "46.7232828"
    },
    {
        "id": "367000",
        "city": "Махачкала",
        "latitude": "42.9848572",
        "longitude": "47.5046303"
    },
    {
        "id": "368000",
        "city": "Хасавюрт",
        "latitude": "43.2505191",
        "longitude": "46.5852276"
    },
    {
        "id": "368890",
        "city": "Южно-Сухокумск",
        "latitude": "44.6600972",
        "longitude": "45.6499304"
    },
    {
        "id": "679002",
        "city": "Биробиджан",
        "latitude": "48.7945975",
        "longitude": "132.9217594"
    },
    {
        "id": "679100",
        "city": "Облучье",
        "latitude": "49.0188344",
        "longitude": "131.0539984"
    },
    {
        "id": "673450",
        "city": "Балей",
        "latitude": "51.5822063",
        "longitude": "116.6380088"
    },
    {
        "id": "674600",
        "city": "Борзя",
        "latitude": "50.3875437",
        "longitude": "116.5235682"
    },
    {
        "id": "674670",
        "city": "Краснокаменск",
        "latitude": "50.092858",
        "longitude": "118.0323407"
    },
    {
        "id": "673730",
        "city": "Могоча",
        "latitude": "53.7362465",
        "longitude": "119.7661232"
    },
    {
        "id": "673400",
        "city": "Нерчинск",
        "latitude": "51.9595512",
        "longitude": "116.5854018"
    },
    {
        "id": "673002",
        "city": "Петровск-Забайкальский",
        "latitude": "51.2748381",
        "longitude": "108.8467139"
    },
    {
        "id": "673500",
        "city": "Сретенск",
        "latitude": "52.2462356",
        "longitude": "117.7116971"
    },
    {
        "id": "673200",
        "city": "Хилок",
        "latitude": "51.3635236",
        "longitude": "110.458989"
    },
    {
        "id": "672000",
        "city": "Чита",
        "latitude": "52.0340128",
        "longitude": "113.4994884"
    },
    {
        "id": "673303",
        "city": "Шилка",
        "latitude": "51.8495302",
        "longitude": "116.033575"
    },
    {
        "id": "155330",
        "city": "Вичуга",
        "latitude": "57.2044545",
        "longitude": "41.9131192"
    },
    {
        "id": "155000",
        "city": "Гаврилов Посад",
        "latitude": "56.5585967",
        "longitude": "40.1228288"
    },
    {
        "id": "155410",
        "city": "Заволжск",
        "latitude": "57.4916546",
        "longitude": "42.1374455"
    },
    {
        "id": "153000",
        "city": "Иваново",
        "latitude": "56.9994677",
        "longitude": "40.9728231"
    },
    {
        "id": "155800",
        "city": "Кинешма",
        "latitude": "57.4425441",
        "longitude": "42.1690039"
    },
    {
        "id": "155150",
        "city": "Комсомольск",
        "latitude": "57.0273907",
        "longitude": "40.3775952"
    },
    {
        "id": "153510",
        "city": "Кохма",
        "latitude": "56.9325151",
        "longitude": "41.0933071"
    },
    {
        "id": "155830",
        "city": "Наволоки",
        "latitude": "57.4678426",
        "longitude": "41.9607371"
    },
    {
        "id": "155555",
        "city": "Плес",
        "latitude": "57.4605304",
        "longitude": "41.512301"
    },
    {
        "id": "155550",
        "city": "Приволжск",
        "latitude": "57.3807249",
        "longitude": "41.2809239"
    },
    {
        "id": "155360",
        "city": "Пучеж",
        "latitude": "56.982075",
        "longitude": "43.1683878"
    },
    {
        "id": "155250",
        "city": "Родники",
        "latitude": "57.1024137",
        "longitude": "41.7298908"
    },
    {
        "id": "155040",
        "city": "Тейково",
        "latitude": "56.8542712",
        "longitude": "40.5355289"
    },
    {
        "id": "155520",
        "city": "Фурманов",
        "latitude": "57.2538043",
        "longitude": "41.1053808"
    },
    {
        "id": "155900",
        "city": "Шуя",
        "latitude": "56.8560743",
        "longitude": "41.3802455"
    },
    {
        "id": "155630",
        "city": "Южа",
        "latitude": "56.5926458",
        "longitude": "42.0457159"
    },
    {
        "id": "155450",
        "city": "Юрьевец",
        "latitude": "57.3178701",
        "longitude": "43.1110553"
    },
    {
        "id": "386230",
        "city": "Карабулак",
        "latitude": "43.3054762",
        "longitude": "44.9094521"
    },
    {
        "id": "386001",
        "city": "Магас",
        "latitude": "43.1686967",
        "longitude": "44.8130849"
    },
    {
        "id": "386300",
        "city": "Малгобек",
        "latitude": "43.5097009",
        "longitude": "44.5901517"
    },
    {
        "id": "386100",
        "city": "Назрань",
        "latitude": "43.2257977",
        "longitude": "44.764685"
    },
    {
        "id": "665160",
        "city": "Алзамай",
        "latitude": "55.5550493",
        "longitude": "98.6644106"
    },
    {
        "id": "665800",
        "city": "Ангарск",
        "latitude": "52.5448102",
        "longitude": "103.8885385"
    },
    {
        "id": "665930",
        "city": "Байкальск",
        "latitude": "51.5231282",
        "longitude": "104.1485752"
    },
    {
        "id": "665050",
        "city": "Бирюсинск",
        "latitude": "55.9608611",
        "longitude": "97.8203624"
    },
    {
        "id": "666901",
        "city": "Бодайбо",
        "latitude": "57.8468822",
        "longitude": "114.1867148"
    },
    {
        "id": "665700",
        "city": "Братск",
        "latitude": "56.1513951",
        "longitude": "101.6339892"
    },
    {
        "id": "665770",
        "city": "Вихоревка",
        "latitude": "56.1207708",
        "longitude": "101.170332"
    },
    {
        "id": "665650",
        "city": "Железногорск-Илимский",
        "latitude": "56.5847382",
        "longitude": "104.1141747"
    },
    {
        "id": "665382",
        "city": "Зима",
        "latitude": "53.9206865",
        "longitude": "102.0492066"
    },
    {
        "id": "664000",
        "city": "Иркутск",
        "latitude": "52.2863513",
        "longitude": "104.280655"
    },
    {
        "id": "666700",
        "city": "Киренск",
        "latitude": "57.7757126",
        "longitude": "108.1107766"
    },
    {
        "id": "665100",
        "city": "Нижнеудинск",
        "latitude": "54.8969105",
        "longitude": "99.0313481"
    },
    {
        "id": "666300",
        "city": "Саянск",
        "latitude": "54.1107787",
        "longitude": "102.1802563"
    },
    {
        "id": "665420",
        "city": "Свирск",
        "latitude": "53.0842576",
        "longitude": "103.3364192"
    },
    {
        "id": "665902",
        "city": "Слюдянка",
        "latitude": "51.6562679",
        "longitude": "103.7186877"
    },
    {
        "id": "665000",
        "city": "Тайшет",
        "latitude": "55.9405397",
        "longitude": "98.0030649"
    },
    {
        "id": "665250",
        "city": "Тулун",
        "latitude": "54.5571409",
        "longitude": "100.5779402"
    },
    {
        "id": "665450",
        "city": "Усолье-Сибирское",
        "latitude": "52.7567192",
        "longitude": "103.6387694"
    },
    {
        "id": "666671",
        "city": "Усть-Илимск",
        "latitude": "57.9431325",
        "longitude": "102.7414683"
    },
    {
        "id": "666780",
        "city": "Усть-Кут",
        "latitude": "56.7928049",
        "longitude": "105.7756883"
    },
    {
        "id": "665400",
        "city": "Черемхово",
        "latitude": "53.1369385",
        "longitude": "103.090119"
    },
    {
        "id": "666031",
        "city": "Шелехов",
        "latitude": "52.2102462",
        "longitude": "104.0973531"
    },
    {
        "id": "361500",
        "city": "Баксан",
        "latitude": "43.6820621",
        "longitude": "43.5345627"
    },
    {
        "id": "361110",
        "city": "Майский",
        "latitude": "43.6281779",
        "longitude": "44.0516663"
    },
    {
        "id": "360000",
        "city": "Нальчик",
        "latitude": "43.4846312",
        "longitude": "43.6070316"
    },
    {
        "id": "361330",
        "city": "Нарткала",
        "latitude": "43.5577208",
        "longitude": "43.8576411"
    },
    {
        "id": "361040",
        "city": "Прохладный",
        "latitude": "43.7589521",
        "longitude": "44.0101936"
    },
    {
        "id": "361200",
        "city": "Терек",
        "latitude": "43.4838439",
        "longitude": "44.1402524"
    },
    {
        "id": "361621",
        "city": "Тырныауз",
        "latitude": "43.3981939",
        "longitude": "42.9215127"
    },
    {
        "id": "361400",
        "city": "Чегем",
        "latitude": "43.5672039",
        "longitude": "43.5865338"
    },
    {
        "id": "238420",
        "city": "Багратионовск",
        "latitude": "54.3866976",
        "longitude": "20.6418545"
    },
    {
        "id": "238520",
        "city": "Балтийск",
        "latitude": "54.6514128",
        "longitude": "19.9141911"
    },
    {
        "id": "238210",
        "city": "Гвардейск",
        "latitude": "54.6588981",
        "longitude": "21.0500584"
    },
    {
        "id": "238300",
        "city": "Гурьевск",
        "latitude": "54.7705368",
        "longitude": "20.6039109"
    },
    {
        "id": "238050",
        "city": "Гусев",
        "latitude": "54.5915477",
        "longitude": "22.1944114"
    },
    {
        "id": "238326",
        "city": "Зеленоградск",
        "latitude": "54.9600226",
        "longitude": "20.4753274"
    },
    {
        "id": "236001",
        "city": "Калининград",
        "latitude": "54.7073218",
        "longitude": "20.5072458"
    },
    {
        "id": "238730",
        "city": "Краснознаменск",
        "latitude": "54.9452612",
        "longitude": "22.4928511"
    },
    {
        "id": "238460",
        "city": "Ладушкин",
        "latitude": "54.5693538",
        "longitude": "20.1691909"
    },
    {
        "id": "238450",
        "city": "Мамоново",
        "latitude": "54.4645591",
        "longitude": "19.9454114"
    },
    {
        "id": "238710",
        "city": "Неман",
        "latitude": "55.0315543",
        "longitude": "22.0323961"
    },
    {
        "id": "238010",
        "city": "Нестеров",
        "latitude": "54.6314454",
        "longitude": "22.5713658"
    },
    {
        "id": "238120",
        "city": "Озерск",
        "latitude": "54.4084804",
        "longitude": "22.013508"
    },
    {
        "id": "238590",
        "city": "Пионерский",
        "latitude": "54.9516927",
        "longitude": "20.227697"
    },
    {
        "id": "238630",
        "city": "Полесск",
        "latitude": "54.8626321",
        "longitude": "21.0998148"
    },
    {
        "id": "238400",
        "city": "Правдинск",
        "latitude": "54.4430604",
        "longitude": "21.0083638"
    },
    {
        "id": "238510",
        "city": "Приморск",
        "latitude": "54.7311185",
        "longitude": "19.9983108"
    },
    {
        "id": "238560",
        "city": "Светлогорск",
        "latitude": "54.9439566",
        "longitude": "20.1514789"
    },
    {
        "id": "238340",
        "city": "Светлый",
        "latitude": "54.6774051",
        "longitude": "20.1356625"
    },
    {
        "id": "238600",
        "city": "Славск",
        "latitude": "55.0451054",
        "longitude": "21.6742294"
    },
    {
        "id": "238750",
        "city": "Советск",
        "latitude": "55.0810474",
        "longitude": "21.8886272"
    },
    {
        "id": "238150",
        "city": "Черняховск",
        "latitude": "54.6243928",
        "longitude": "21.7969179"
    },
    {
        "id": "359050",
        "city": "Городовиковск",
        "latitude": "46.0875351",
        "longitude": "41.9354039"
    },
    {
        "id": "359220",
        "city": "Лагань",
        "latitude": "45.3929617",
        "longitude": "47.3432943"
    },
    {
        "id": "358000",
        "city": "Элиста",
        "latitude": "46.3082947",
        "longitude": "44.2701417"
    },
    {
        "id": "249000",
        "city": "Балабаново",
        "latitude": "55.1773652",
        "longitude": "36.6567255"
    },
    {
        "id": "249160",
        "city": "Белоусово",
        "latitude": "55.0957679",
        "longitude": "36.6777239"
    },
    {
        "id": "249010",
        "city": "Боровск",
        "latitude": "55.2130965",
        "longitude": "36.4927446"
    },
    {
        "id": "249026",
        "city": "Ермолино",
        "latitude": "55.1972714",
        "longitude": "36.5951966"
    },
    {
        "id": "249340",
        "city": "Жиздра",
        "latitude": "53.7522384",
        "longitude": "34.7386719"
    },
    {
        "id": "249190",
        "city": "Жуков",
        "latitude": "55.0301386",
        "longitude": "36.7393279"
    },
    {
        "id": "248000",
        "city": "Калуга",
        "latitude": "54.5060439",
        "longitude": "36.2515933"
    },
    {
        "id": "249440",
        "city": "Киров",
        "latitude": "54.0790823",
        "longitude": "34.3077508"
    },
    {
        "id": "249720",
        "city": "Козельск",
        "latitude": "54.0348417",
        "longitude": "35.7807136"
    },
    {
        "id": "249830",
        "city": "Кондрово",
        "latitude": "54.796051",
        "longitude": "35.9276099"
    },
    {
        "id": "249185",
        "city": "Кременки",
        "latitude": "54.8863306",
        "longitude": "37.116878"
    },
    {
        "id": "249400",
        "city": "Людиново",
        "latitude": "53.8701406",
        "longitude": "34.4385498"
    },
    {
        "id": "249091",
        "city": "Малоярославец",
        "latitude": "55.0176756",
        "longitude": "36.4632122"
    },
    {
        "id": "249950",
        "city": "Медынь",
        "latitude": "54.9690755",
        "longitude": "35.887313"
    },
    {
        "id": "249240",
        "city": "Мещовск",
        "latitude": "54.3191127",
        "longitude": "35.2816065"
    },
    {
        "id": "249930",
        "city": "Мосальск",
        "latitude": "54.4825589",
        "longitude": "34.987206"
    },
    {
        "id": "249030",
        "city": "Обнинск",
        "latitude": "55.0943892",
        "longitude": "36.6121785"
    },
    {
        "id": "249710",
        "city": "Сосенский",
        "latitude": "54.056525",
        "longitude": "35.9621458"
    },
    {
        "id": "249610",
        "city": "Спас-Деменск",
        "latitude": "54.4099201",
        "longitude": "34.0190263"
    },
    {
        "id": "249270",
        "city": "Сухиничи",
        "latitude": "54.0973787",
        "longitude": "35.3443077"
    },
    {
        "id": "249100",
        "city": "Таруса",
        "latitude": "54.7236791",
        "longitude": "37.1670866"
    },
    {
        "id": "249910",
        "city": "Юхнов",
        "latitude": "54.7445873",
        "longitude": "35.2424857"
    },
    {
        "id": "684090",
        "city": "Вилючинск",
        "latitude": "52.930428",
        "longitude": "158.4057276"
    },
    {
        "id": "684000",
        "city": "Елизово",
        "latitude": "53.1829573",
        "longitude": "158.3882833"
    },
    {
        "id": "683000",
        "city": "Петропавловск-Камчатский",
        "latitude": "53.0370213",
        "longitude": "158.6559142"
    },
    {
        "id": "369200",
        "city": "Карачаевск",
        "latitude": "43.773197",
        "longitude": "41.9143726"
    },
    {
        "id": "369210",
        "city": "Теберда",
        "latitude": "43.4438408",
        "longitude": "41.7414924"
    },
    {
        "id": "369300",
        "city": "Усть-Джегута",
        "latitude": "44.083852",
        "longitude": "41.971128"
    },
    {
        "id": "369000",
        "city": "Черкесск",
        "latitude": "44.2268637",
        "longitude": "42.0467829"
    },
    {
        "id": "186500",
        "city": "Беломорск",
        "latitude": "64.5378468",
        "longitude": "34.7799717"
    },
    {
        "id": "186610",
        "city": "Кемь",
        "latitude": "64.9543657",
        "longitude": "34.5948547"
    },
    {
        "id": "186220",
        "city": "Кондопога",
        "latitude": "62.2059866",
        "longitude": "34.2681778"
    },
    {
        "id": "186930",
        "city": "Костомукша",
        "latitude": "64.5889946",
        "longitude": "30.6015567"
    },
    {
        "id": "186730",
        "city": "Лахденпохья",
        "latitude": "61.5189466",
        "longitude": "30.199592"
    },
    {
        "id": "186350",
        "city": "Медвежьегорск",
        "latitude": "62.9127678",
        "longitude": "34.4567614"
    },
    {
        "id": "186000",
        "city": "Олонец",
        "latitude": "60.9793604",
        "longitude": "32.9726031"
    },
    {
        "id": "185000",
        "city": "Петрозаводск",
        "latitude": "61.78909",
        "longitude": "34.3596263"
    },
    {
        "id": "186810",
        "city": "Питкяранта",
        "latitude": "61.5756886",
        "longitude": "31.4641309"
    },
    {
        "id": "186150",
        "city": "Пудож",
        "latitude": "61.8059147",
        "longitude": "36.5330088"
    },
    {
        "id": "186420",
        "city": "Сегежа",
        "latitude": "63.7437211",
        "longitude": "34.3126755"
    },
    {
        "id": "186790",
        "city": "Сортавала",
        "latitude": "61.7032216",
        "longitude": "30.6917021"
    },
    {
        "id": "186870",
        "city": "Суоярви",
        "latitude": "62.0787769",
        "longitude": "32.3499029"
    },
    {
        "id": "652470",
        "city": "Анжеро-Судженск",
        "latitude": "56.0787179",
        "longitude": "86.0202207"
    },
    {
        "id": "652600",
        "city": "Белово",
        "latitude": "54.4221442",
        "longitude": "86.3036438"
    },
    {
        "id": "652420",
        "city": "Березовский",
        "latitude": "55.6692853",
        "longitude": "86.2744636"
    },
    {
        "id": "652780",
        "city": "Гурьевск",
        "latitude": "54.2860005",
        "longitude": "85.947723"
    },
    {
        "id": "652740",
        "city": "Калтан",
        "latitude": "53.5210461",
        "longitude": "87.2772143"
    },
    {
        "id": "650000",
        "city": "Кемерово",
        "latitude": "55.3909721",
        "longitude": "86.0467864"
    },
    {
        "id": "652700",
        "city": "Киселевск",
        "latitude": "54.0060382",
        "longitude": "86.6367387"
    },
    {
        "id": "652500",
        "city": "Ленинск-Кузнецкий",
        "latitude": "54.6674092",
        "longitude": "86.1796724"
    },
    {
        "id": "652150",
        "city": "Мариинск",
        "latitude": "56.2127836",
        "longitude": "87.7454392"
    },
    {
        "id": "652870",
        "city": "Междуреченск",
        "latitude": "53.6865695",
        "longitude": "88.0703888"
    },
    {
        "id": "652840",
        "city": "Мыски",
        "latitude": "53.7125516",
        "longitude": "87.8056657"
    },
    {
        "id": "654000",
        "city": "Новокузнецк",
        "latitude": "53.7942757",
        "longitude": "87.2144046"
    },
    {
        "id": "652800",
        "city": "Осинники",
        "latitude": "53.5987397",
        "longitude": "87.3369948"
    },
    {
        "id": "652560",
        "city": "Полысаево",
        "latitude": "54.6053968",
        "longitude": "86.2808803"
    },
    {
        "id": "652701",
        "city": "Прокопьевск",
        "latitude": "53.8604562",
        "longitude": "86.7183428"
    },
    {
        "id": "652770",
        "city": "Салаир",
        "latitude": "54.2351588",
        "longitude": "85.8029215"
    },
    {
        "id": "652400",
        "city": "Тайга",
        "latitude": "56.0622767",
        "longitude": "85.6207907"
    },
    {
        "id": "652990",
        "city": "Таштагол",
        "latitude": "52.7594505",
        "longitude": "87.8477272"
    },
    {
        "id": "652300",
        "city": "Топки",
        "latitude": "55.2766036",
        "longitude": "85.6153223"
    },
    {
        "id": "652050",
        "city": "Юрга",
        "latitude": "55.7202689",
        "longitude": "84.8885516"
    },
    {
        "id": "613200",
        "city": "Белая Холуница",
        "latitude": "58.8415212",
        "longitude": "50.8461002"
    },
    {
        "id": "612960",
        "city": "Вятские Поляны",
        "latitude": "56.2286058",
        "longitude": "51.0614666"
    },
    {
        "id": "612410",
        "city": "Зуевка",
        "latitude": "58.4031674",
        "longitude": "51.1330787"
    },
    {
        "id": "610000",
        "city": "Киров",
        "latitude": "58.6035313",
        "longitude": "49.6679219"
    },
    {
        "id": "613040",
        "city": "Кирово-Чепецк",
        "latitude": "58.5559921",
        "longitude": "50.0317608"
    },
    {
        "id": "612820",
        "city": "Кирс",
        "latitude": "59.3400586",
        "longitude": "52.2415895"
    },
    {
        "id": "612600",
        "city": "Котельнич",
        "latitude": "58.3035238",
        "longitude": "48.3474288"
    },
    {
        "id": "613980",
        "city": "Луза",
        "latitude": "60.6290781",
        "longitude": "47.2612069"
    },
    {
        "id": "612920",
        "city": "Малмыж",
        "latitude": "56.5243722",
        "longitude": "50.6782757"
    },
    {
        "id": "613710",
        "city": "Мураши",
        "latitude": "59.3956347",
        "longitude": "48.9637651"
    },
    {
        "id": "613440",
        "city": "Нолинск",
        "latitude": "57.5596946",
        "longitude": "49.9357867"
    },
    {
        "id": "612740",
        "city": "Омутнинск",
        "latitude": "58.6697684",
        "longitude": "52.1893554"
    },
    {
        "id": "612270",
        "city": "Орлов",
        "latitude": "58.5389402",
        "longitude": "48.8929268"
    },
    {
        "id": "613150",
        "city": "Слободской",
        "latitude": "58.7311934",
        "longitude": "50.1670091"
    },
    {
        "id": "613341",
        "city": "Советск",
        "latitude": "57.5841434",
        "longitude": "48.9589228"
    },
    {
        "id": "612990",
        "city": "Сосновка",
        "latitude": "56.2533149",
        "longitude": "51.2833412"
    },
    {
        "id": "613530",
        "city": "Уржум",
        "latitude": "57.1097612",
        "longitude": "50.0056278"
    },
    {
        "id": "612260",
        "city": "Яранск",
        "latitude": "57.304195",
        "longitude": "47.8479185"
    },
    {
        "id": "169900",
        "city": "Воркута",
        "latitude": "67.4973484",
        "longitude": "64.0611045"
    },
    {
        "id": "169570",
        "city": "Вуктыл",
        "latitude": "63.8615209",
        "longitude": "57.3165207"
    },
    {
        "id": "169200",
        "city": "Емва",
        "latitude": "62.5965314",
        "longitude": "50.8731889"
    },
    {
        "id": "169840",
        "city": "Инта",
        "latitude": "66.0368196",
        "longitude": "60.1154612"
    },
    {
        "id": "169060",
        "city": "Микунь",
        "latitude": "62.3580188",
        "longitude": "50.0719738"
    },
    {
        "id": "169600",
        "city": "Печора",
        "latitude": "65.1485717",
        "longitude": "57.22388"
    },
    {
        "id": "169500",
        "city": "Сосногорск",
        "latitude": "63.5990137",
        "longitude": "53.8762792"
    },
    {
        "id": "167000",
        "city": "Сыктывкар",
        "latitude": "61.668789",
        "longitude": "50.8356491"
    },
    {
        "id": "169710",
        "city": "Усинск",
        "latitude": "65.9941116",
        "longitude": "57.5570054"
    },
    {
        "id": "169300",
        "city": "Ухта",
        "latitude": "63.5564779",
        "longitude": "53.7014202"
    },
    {
        "id": "157000",
        "city": "Буй",
        "latitude": "58.473445",
        "longitude": "41.5306746"
    },
    {
        "id": "156901",
        "city": "Волгореченск",
        "latitude": "57.4423712",
        "longitude": "41.1593076"
    },
    {
        "id": "157200",
        "city": "Галич",
        "latitude": "58.3826861",
        "longitude": "42.3654563"
    },
    {
        "id": "157440",
        "city": "Кологрив",
        "latitude": "58.826988",
        "longitude": "44.3185323"
    },
    {
        "id": "156000",
        "city": "Кострома",
        "latitude": "57.8029445",
        "longitude": "40.9907282"
    },
    {
        "id": "157460",
        "city": "Макарьев",
        "latitude": "57.8808916",
        "longitude": "43.8014428"
    },
    {
        "id": "157300",
        "city": "Мантурово",
        "latitude": "58.3264667",
        "longitude": "44.7575036"
    },
    {
        "id": "157800",
        "city": "Нерехта",
        "latitude": "57.4543706",
        "longitude": "40.5725438"
    },
    {
        "id": "157331",
        "city": "Нея",
        "latitude": "58.2944499",
        "longitude": "43.8780965"
    },
    {
        "id": "157170",
        "city": "Солигалич",
        "latitude": "59.0786729",
        "longitude": "42.2877245"
    },
    {
        "id": "157130",
        "city": "Чухлома",
        "latitude": "58.7534246",
        "longitude": "42.6883783"
    },
    {
        "id": "157500",
        "city": "Шарья",
        "latitude": "58.3761832",
        "longitude": "45.4060762"
    },
    {
        "id": "353320",
        "city": "Абинск",
        "latitude": "44.8679931",
        "longitude": "38.1618437"
    },
    {
        "id": "353440",
        "city": "Анапа",
        "latitude": "44.8950777",
        "longitude": "37.3163142"
    },
    {
        "id": "352690",
        "city": "Апшеронск",
        "latitude": "44.4585239",
        "longitude": "39.7300092"
    },
    {
        "id": "352900",
        "city": "Армавир",
        "latitude": "45.0010338",
        "longitude": "41.132392"
    },
    {
        "id": "352630",
        "city": "Белореченск",
        "latitude": "44.7652733",
        "longitude": "39.8780457"
    },
    {
        "id": "353460",
        "city": "Геленджик",
        "latitude": "44.5631053",
        "longitude": "38.0790184"
    },
    {
        "id": "353280",
        "city": "Горячий Ключ",
        "latitude": "44.6343251",
        "longitude": "39.1356421"
    },
    {
        "id": "352190",
        "city": "Гулькевичи",
        "latitude": "45.3605769",
        "longitude": "40.6918484"
    },
    {
        "id": "353680",
        "city": "Ейск",
        "latitude": "46.7114611",
        "longitude": "38.2764915"
    },
    {
        "id": "353180",
        "city": "Кореновск",
        "latitude": "45.4640868",
        "longitude": "39.4590178"
    },
    {
        "id": "350000",
        "city": "Краснодар",
        "latitude": "45.040235",
        "longitude": "38.9760801"
    },
    {
        "id": "352380",
        "city": "Кропоткин",
        "latitude": "45.4332464",
        "longitude": "40.5727852"
    },
    {
        "id": "353380",
        "city": "Крымск",
        "latitude": "44.9344108",
        "longitude": "37.9855314"
    },
    {
        "id": "352430",
        "city": "Курганинск",
        "latitude": "44.8876442",
        "longitude": "40.5913858"
    },
    {
        "id": "352500",
        "city": "Лабинск",
        "latitude": "44.6353153",
        "longitude": "40.724385"
    },
    {
        "id": "352240",
        "city": "Новокубанск",
        "latitude": "45.1038782",
        "longitude": "41.0473679"
    },
    {
        "id": "353900",
        "city": "Новороссийск",
        "latitude": "44.7234264",
        "longitude": "37.7687218"
    },
    {
        "id": "353860",
        "city": "Приморско-Ахтарск",
        "latitude": "46.0515",
        "longitude": "38.1704654"
    },
    {
        "id": "353560",
        "city": "Славянск-на-Кубани",
        "latitude": "45.2605079",
        "longitude": "38.1260725"
    },
    {
        "id": "354000",
        "city": "Сочи",
        "latitude": "43.5855829",
        "longitude": "39.7231419"
    },
    {
        "id": "353500",
        "city": "Темрюк",
        "latitude": "45.2611082",
        "longitude": "37.445519"
    },
    {
        "id": "352700",
        "city": "Тимашевск",
        "latitude": "45.6159358",
        "longitude": "38.9350513"
    },
    {
        "id": "352120",
        "city": "Тихорецк",
        "latitude": "45.8546953",
        "longitude": "40.1258702"
    },
    {
        "id": "352800",
        "city": "Туапсе",
        "latitude": "44.1103707",
        "longitude": "39.082645"
    },
    {
        "id": "352330",
        "city": "Усть-Лабинск",
        "latitude": "45.222676",
        "longitude": "39.6930239"
    },
    {
        "id": "352680",
        "city": "Хадыженск",
        "latitude": "44.412303",
        "longitude": "39.5319151"
    },
    {
        "id": "662951",
        "city": "Артемовск",
        "latitude": "54.3472901",
        "longitude": "93.4356543"
    },
    {
        "id": "662150",
        "city": "Ачинск",
        "latitude": "56.2538662",
        "longitude": "90.47949"
    },
    {
        "id": "662060",
        "city": "Боготол",
        "latitude": "56.209881",
        "longitude": "89.5300182"
    },
    {
        "id": "663980",
        "city": "Бородино",
        "latitude": "55.9054308",
        "longitude": "94.9021138"
    },
    {
        "id": "663081",
        "city": "Дивногорск",
        "latitude": "55.9577868",
        "longitude": "92.380085"
    },
    {
        "id": "647000",
        "city": "Дудинка",
        "latitude": "69.4031339",
        "longitude": "86.1908135"
    },
    {
        "id": "663150",
        "city": "Енисейск",
        "latitude": "58.4485234",
        "longitude": "92.165237"
    },
    {
        "id": "662970",
        "city": "Железногорск",
        "latitude": "56.2529346",
        "longitude": "93.532167"
    },
    {
        "id": "663960",
        "city": "Заозерный",
        "latitude": "55.9617268",
        "longitude": "94.7091037"
    },
    {
        "id": "663690",
        "city": "Зеленогорск",
        "latitude": "56.1133001",
        "longitude": "94.5888736"
    },
    {
        "id": "663200",
        "city": "Игарка",
        "latitude": "67.4667947",
        "longitude": "86.5814287"
    },
    {
        "id": "663800",
        "city": "Иланский",
        "latitude": "56.2374163",
        "longitude": "96.0672656"
    },
    {
        "id": "663600",
        "city": "Канск",
        "latitude": "56.2049776",
        "longitude": "95.7051246"
    },
    {
        "id": "663491",
        "city": "Кодинск",
        "latitude": "58.6033961",
        "longitude": "99.1797563"
    },
    {
        "id": "660000",
        "city": "Красноярск",
        "latitude": "56.009466",
        "longitude": "92.8524162"
    },
    {
        "id": "662541",
        "city": "Лесосибирск",
        "latitude": "58.2218201",
        "longitude": "92.5036986"
    },
    {
        "id": "662600",
        "city": "Минусинск",
        "latitude": "53.7105509",
        "longitude": "91.6871866"
    },
    {
        "id": "662200",
        "city": "Назарово",
        "latitude": "56.0113176",
        "longitude": "90.4167947"
    },
    {
        "id": "663300",
        "city": "Норильск",
        "latitude": "69.3490828",
        "longitude": "88.2009965"
    },
    {
        "id": "662500",
        "city": "Сосновоборск",
        "latitude": "56.1202088",
        "longitude": "93.3353411"
    },
    {
        "id": "662251",
        "city": "Ужур",
        "latitude": "55.3141977",
        "longitude": "89.8333827"
    },
    {
        "id": "663920",
        "city": "Уяр",
        "latitude": "55.8131698",
        "longitude": "94.3282148"
    },
    {
        "id": "662310",
        "city": "Шарыпово",
        "latitude": "55.5389684",
        "longitude": "89.1801557"
    },
    {
        "id": "298676",
        "city": "Ялта",
        "latitude": "44.416366",
        "longitude": "34.04455"
    },
    {
        "id": "298500",
        "city": "Алушта",
        "latitude": "44.6764419",
        "longitude": "34.4100387"
    },
    {
        "id": "296012",
        "city": "Армянск",
        "latitude": "46.1059247",
        "longitude": "33.6910325"
    },
    {
        "id": "298400",
        "city": "Бахчисарай",
        "latitude": "44.751388",
        "longitude": "33.8750341"
    },
    {
        "id": "297600",
        "city": "Белогорск",
        "latitude": "45.0571581",
        "longitude": "34.5998775"
    },
    {
        "id": "296100",
        "city": "Джанкой",
        "latitude": "45.7092436",
        "longitude": "34.388332"
    },
    {
        "id": "297402",
        "city": "Евпатория",
        "latitude": "45.1904322",
        "longitude": "33.3667685"
    },
    {
        "id": "298300",
        "city": "Керчь",
        "latitude": "45.3561128",
        "longitude": "36.4674285"
    },
    {
        "id": "296000",
        "city": "Красноперекопск",
        "latitude": "45.9537956",
        "longitude": "33.7921523"
    },
    {
        "id": "296500",
        "city": "Саки",
        "latitude": "45.1342889",
        "longitude": "33.6032508"
    },
    {
        "id": "295000",
        "city": "Симферополь",
        "latitude": "44.9482645",
        "longitude": "34.100117"
    },
    {
        "id": "297345",
        "city": "Старый Крым",
        "latitude": "45.0290659",
        "longitude": "35.0900885"
    },
    {
        "id": "298000",
        "city": "Судак",
        "latitude": "44.8505913",
        "longitude": "34.9761591"
    },
    {
        "id": "298100",
        "city": "Феодосия",
        "latitude": "45.031878",
        "longitude": "35.3824772"
    },
    {
        "id": "298213",
        "city": "Щелкино",
        "latitude": "45.4289847",
        "longitude": "35.8251329"
    },
    {
        "id": "298600",
        "city": "Ялта",
        "latitude": "44.4951948",
        "longitude": "34.166386"
    },
    {
        "id": "641730",
        "city": "Далматово",
        "latitude": "56.2621393",
        "longitude": "62.9387378"
    },
    {
        "id": "641700",
        "city": "Катайск",
        "latitude": "56.2908118",
        "longitude": "62.5800669"
    },
    {
        "id": "640002",
        "city": "Курган",
        "latitude": "55.4443448",
        "longitude": "65.3161339"
    },
    {
        "id": "641430",
        "city": "Куртамыш",
        "latitude": "54.9368491",
        "longitude": "64.4203009"
    },
    {
        "id": "641600",
        "city": "Макушино",
        "latitude": "55.2154025",
        "longitude": "67.2452558"
    },
    {
        "id": "641640",
        "city": "Петухово",
        "latitude": "55.0649932",
        "longitude": "67.8874369"
    },
    {
        "id": "641870",
        "city": "Шадринск",
        "latitude": "56.0870152",
        "longitude": "63.6298234"
    },
    {
        "id": "641100",
        "city": "Шумиха",
        "latitude": "55.2281833",
        "longitude": "63.2902391"
    },
    {
        "id": "641010",
        "city": "Щучье",
        "latitude": "55.20883",
        "longitude": "62.7478475"
    },
    {
        "id": "307500",
        "city": "Дмитриев",
        "latitude": "52.1269291",
        "longitude": "35.0739504"
    },
    {
        "id": "307170",
        "city": "Железногорск",
        "latitude": "52.3378753",
        "longitude": "35.3516834"
    },
    {
        "id": "305000",
        "city": "Курск",
        "latitude": "51.7303391",
        "longitude": "36.1926448"
    },
    {
        "id": "307250",
        "city": "Курчатов",
        "latitude": "51.6605475",
        "longitude": "35.6571711"
    },
    {
        "id": "307750",
        "city": "Льгов",
        "latitude": "51.6596935",
        "longitude": "35.2611592"
    },
    {
        "id": "306230",
        "city": "Обоянь",
        "latitude": "51.212012",
        "longitude": "36.275425"
    },
    {
        "id": "307370",
        "city": "Рыльск",
        "latitude": "51.568165",
        "longitude": "34.6802178"
    },
    {
        "id": "307800",
        "city": "Суджа",
        "latitude": "51.1919711",
        "longitude": "35.2719619"
    },
    {
        "id": "307100",
        "city": "Фатеж",
        "latitude": "52.0918591",
        "longitude": "35.8538912"
    },
    {
        "id": "306509",
        "city": "Щигры",
        "latitude": "51.8787808",
        "longitude": "36.8910674"
    },
    {
        "id": "187650",
        "city": "Бокситогорск",
        "latitude": "59.4735032",
        "longitude": "33.8456521"
    },
    {
        "id": "188410",
        "city": "Волосово",
        "latitude": "59.4445107",
        "longitude": "29.492277"
    },
    {
        "id": "187401",
        "city": "Волхов",
        "latitude": "59.9006057",
        "longitude": "32.35212"
    },
    {
        "id": "188640",
        "city": "Всеволожск",
        "latitude": "60.0190094",
        "longitude": "30.6455834"
    },
    {
        "id": "188800",
        "city": "Выборг",
        "latitude": "60.7130748",
        "longitude": "28.7328813"
    },
    {
        "id": "188909",
        "city": "Высоцк",
        "latitude": "60.6296511",
        "longitude": "28.5709914"
    },
    {
        "id": "188300",
        "city": "Гатчина",
        "latitude": "59.5650861",
        "longitude": "30.1281859"
    },
    {
        "id": "188490",
        "city": "Ивангород",
        "latitude": "59.3765845",
        "longitude": "28.2230504"
    },
    {
        "id": "188950",
        "city": "Каменногорск",
        "latitude": "60.9508768",
        "longitude": "29.1308061"
    },
    {
        "id": "188456",
        "city": "Кингисепп",
        "latitude": "59.3739407",
        "longitude": "28.6112981"
    },
    {
        "id": "187110",
        "city": "Кириши",
        "latitude": "59.4742626",
        "longitude": "32.0625536"
    },
    {
        "id": "187340",
        "city": "Кировск",
        "latitude": "59.875371",
        "longitude": "30.9815205"
    },
    {
        "id": "188320",
        "city": "Коммунар",
        "latitude": "59.6215929",
        "longitude": "30.393466"
    },
    {
        "id": "187700",
        "city": "Лодейное Поле",
        "latitude": "60.7320564",
        "longitude": "33.5522225"
    },
    {
        "id": "188230",
        "city": "Луга",
        "latitude": "58.7373818",
        "longitude": "29.8466657"
    },
    {
        "id": "187050",
        "city": "Любань",
        "latitude": "59.3492573",
        "longitude": "31.2485276"
    },
    {
        "id": "187026",
        "city": "Никольское",
        "latitude": "59.7042633",
        "longitude": "30.7874879"
    },
    {
        "id": "187450",
        "city": "Новая Ладога",
        "latitude": "60.1100013",
        "longitude": "32.3141446"
    },
    {
        "id": "187330",
        "city": "Отрадное",
        "latitude": "59.772596",
        "longitude": "30.7988403"
    },
    {
        "id": "187600",
        "city": "Пикалево",
        "latitude": "59.5130655",
        "longitude": "34.1773982"
    },
    {
        "id": "187780",
        "city": "Подпорожье",
        "latitude": "60.9127463",
        "longitude": "34.1567832"
    },
    {
        "id": "188910",
        "city": "Приморск",
        "latitude": "60.3660787",
        "longitude": "28.6135962"
    },
    {
        "id": "188760",
        "city": "Приозерск",
        "latitude": "61.03313",
        "longitude": "30.15876"
    },
    {
        "id": "188990",
        "city": "Светогорск",
        "latitude": "61.1112679",
        "longitude": "28.8726666"
    },
    {
        "id": "188650",
        "city": "Сертолово",
        "latitude": "60.14458",
        "longitude": "30.2094595"
    },
    {
        "id": "188560",
        "city": "Сланцы",
        "latitude": "59.1178693",
        "longitude": "28.088106"
    },
    {
        "id": "188540",
        "city": "Сосновый Бор",
        "latitude": "59.8772921",
        "longitude": "29.1290866"
    },
    {
        "id": "187420",
        "city": "Сясьстрой",
        "latitude": "60.1402454",
        "longitude": "32.5602015"
    },
    {
        "id": "187550",
        "city": "Тихвин",
        "latitude": "59.6273809",
        "longitude": "33.5072307"
    },
    {
        "id": "187000",
        "city": "Тосно",
        "latitude": "59.5406697",
        "longitude": "30.8777872"
    },
    {
        "id": "187320",
        "city": "Шлиссельбург",
        "latitude": "59.9443923",
        "longitude": "31.0334136"
    },
    {
        "id": "399050",
        "city": "Грязи",
        "latitude": "52.4873931",
        "longitude": "39.9331785"
    },
    {
        "id": "399850",
        "city": "Данков",
        "latitude": "53.25769",
        "longitude": "39.1457625"
    },
    {
        "id": "399770",
        "city": "Елец",
        "latitude": "52.6151738",
        "longitude": "38.5289121"
    },
    {
        "id": "399200",
        "city": "Задонск",
        "latitude": "52.4004611",
        "longitude": "38.9205772"
    },
    {
        "id": "399610",
        "city": "Лебедянь",
        "latitude": "53.0156678",
        "longitude": "39.143498"
    },
    {
        "id": "398000",
        "city": "Липецк",
        "latitude": "52.6103027",
        "longitude": "39.5946266"
    },
    {
        "id": "399341",
        "city": "Усмань",
        "latitude": "52.0444165",
        "longitude": "39.7264516"
    },
    {
        "id": "399900",
        "city": "Чаплыгин",
        "latitude": "53.2404794",
        "longitude": "39.9671563"
    },
    {
        "id": "685000",
        "city": "Магадан",
        "latitude": "59.5681763",
        "longitude": "150.8085289"
    },
    {
        "id": "686314",
        "city": "Сусуман",
        "latitude": "62.7804628",
        "longitude": "148.154033"
    },
    {
        "id": "425000",
        "city": "Волжск",
        "latitude": "55.8622987",
        "longitude": "48.371553"
    },
    {
        "id": "425060",
        "city": "Звенигово",
        "latitude": "55.9739374",
        "longitude": "48.0170276"
    },
    {
        "id": "424000",
        "city": "Йошкар-Ола",
        "latitude": "56.6343763",
        "longitude": "47.8998445"
    },
    {
        "id": "425350",
        "city": "Козьмодемьянск",
        "latitude": "56.333346",
        "longitude": "46.5466282"
    },
    {
        "id": "431860",
        "city": "Ардатов",
        "latitude": "54.8465693",
        "longitude": "46.2412736"
    },
    {
        "id": "431430",
        "city": "Инсар",
        "latitude": "53.8770384",
        "longitude": "44.3696866"
    },
    {
        "id": "431350",
        "city": "Ковылкино",
        "latitude": "54.0391464",
        "longitude": "43.9191229"
    },
    {
        "id": "431260",
        "city": "Краснослободск",
        "latitude": "54.4248634",
        "longitude": "43.7845096"
    },
    {
        "id": "431440",
        "city": "Рузаевка",
        "latitude": "54.0583238",
        "longitude": "44.949116"
    },
    {
        "id": "430000",
        "city": "Саранск",
        "latitude": "54.1807601",
        "longitude": "45.1862263"
    },
    {
        "id": "431220",
        "city": "Темников",
        "latitude": "54.6309086",
        "longitude": "43.2161785"
    },
    {
        "id": "101000",
        "city": "",
        "latitude": "55.7538789",
        "longitude": "37.6203735"
    },
    {
        "id": "143360",
        "city": "Апрелевка",
        "latitude": "55.5276336",
        "longitude": "37.0651105"
    },
    {
        "id": "143900",
        "city": "Балашиха",
        "latitude": "55.7963352",
        "longitude": "37.9381413"
    },
    {
        "id": "140170",
        "city": "Бронницы",
        "latitude": "55.4255534",
        "longitude": "38.2640794"
    },
    {
        "id": "143330",
        "city": "Верея",
        "latitude": "55.3674668",
        "longitude": "36.1563083"
    },
    {
        "id": "142700",
        "city": "Видное",
        "latitude": "55.5518323",
        "longitude": "37.7062062"
    },
    {
        "id": "143600",
        "city": "Волоколамск",
        "latitude": "56.0358121",
        "longitude": "35.9585027"
    },
    {
        "id": "140200",
        "city": "Воскресенск",
        "latitude": "55.3071305",
        "longitude": "38.7026949"
    },
    {
        "id": "141650",
        "city": "Высоковск",
        "latitude": "56.336141",
        "longitude": "36.5251316"
    },
    {
        "id": "143040",
        "city": "Голицыно",
        "latitude": "55.6189762",
        "longitude": "36.9855559"
    },
    {
        "id": "143530",
        "city": "Дедовск",
        "latitude": "55.8704718",
        "longitude": "37.1244724"
    },
    {
        "id": "140090",
        "city": "Дзержинский",
        "latitude": "55.6241079",
        "longitude": "37.8440691"
    },
    {
        "id": "141800",
        "city": "Дмитров",
        "latitude": "56.3477176",
        "longitude": "37.5267184"
    },
    {
        "id": "141700",
        "city": "Долгопрудный",
        "latitude": "55.9384901",
        "longitude": "37.5100527"
    },
    {
        "id": "102321",
        "city": "Домодедово",
        "latitude": "55.4363901",
        "longitude": "37.7666263"
    },
    {
        "id": "142660",
        "city": "Дрезна",
        "latitude": "55.7442991",
        "longitude": "38.8499228"
    },
    {
        "id": "141980",
        "city": "Дубна",
        "latitude": "56.7417949",
        "longitude": "37.1757163"
    },
    {
        "id": "140300",
        "city": "Егорьевск",
        "latitude": "55.3831326",
        "longitude": "39.0358236"
    },
    {
        "id": "140180",
        "city": "Жуковский",
        "latitude": "55.5998408",
        "longitude": "38.1224185"
    },
    {
        "id": "140600",
        "city": "Зарайск",
        "latitude": "54.7625993",
        "longitude": "38.8851485"
    },
    {
        "id": "143180",
        "city": "Звенигород",
        "latitude": "55.7296168",
        "longitude": "36.8552843"
    },
    {
        "id": "141280",
        "city": "Ивантеевка",
        "latitude": "55.9742303",
        "longitude": "37.9208755"
    },
    {
        "id": "143500",
        "city": "Истра",
        "latitude": "55.9061087",
        "longitude": "36.8600854"
    },
    {
        "id": "142900",
        "city": "Кашира",
        "latitude": "54.8534263",
        "longitude": "38.1903818"
    },
    {
        "id": "141601",
        "city": "Клин",
        "latitude": "56.3424886",
        "longitude": "36.7240912"
    },
    {
        "id": "140400",
        "city": "Коломна",
        "latitude": "55.1027797",
        "longitude": "38.7531734"
    },
    {
        "id": "141070",
        "city": "Королев",
        "latitude": "55.9162558",
        "longitude": "37.8545224"
    },
    {
        "id": "",
        "city": "Котельники",
        "latitude": "55.659898",
        "longitude": "37.8632865"
    },
    {
        "id": "141290",
        "city": "Красноармейск",
        "latitude": "51.0268595",
        "longitude": "45.7011086"
    },
    {
        "id": "143401",
        "city": "Красногорск",
        "latitude": "55.8318475",
        "longitude": "37.32942"
    },
    {
        "id": "141321",
        "city": "Краснозаводск",
        "latitude": "56.4408723",
        "longitude": "38.2320671"
    },
    {
        "id": "143090",
        "city": "Краснознаменск",
        "latitude": "55.5978962",
        "longitude": "37.0395137"
    },
    {
        "id": "143070",
        "city": "Кубинка",
        "latitude": "55.5755679",
        "longitude": "36.6952487"
    },
    {
        "id": "142620",
        "city": "Куровское",
        "latitude": "55.5791491",
        "longitude": "38.9208543"
    },
    {
        "id": "142670",
        "city": "Ликино-Дулево",
        "latitude": "55.7078531",
        "longitude": "38.9577103"
    },
    {
        "id": "141055",
        "city": "Лобня",
        "latitude": "56.0328745",
        "longitude": "37.4614671"
    },
    {
        "id": "141150",
        "city": "Лосино-Петровский",
        "latitude": "55.8714441",
        "longitude": "38.2005377"
    },
    {
        "id": "140500",
        "city": "Луховицы",
        "latitude": "54.9651617",
        "longitude": "39.0261346"
    },
    {
        "id": "140080",
        "city": "Лыткарино",
        "latitude": "55.5778065",
        "longitude": "37.9034952"
    },
    {
        "id": "140000",
        "city": "Люберцы",
        "latitude": "55.700416",
        "longitude": "37.9606496"
    },
    {
        "id": "143200",
        "city": "Можайск",
        "latitude": "55.5069819",
        "longitude": "36.0240724"
    },
    {
        "id": "141000",
        "city": "Мытищи",
        "latitude": "55.9104647",
        "longitude": "37.7363702"
    },
    {
        "id": "143300",
        "city": "Наро-Фоминск",
        "latitude": "55.3802749",
        "longitude": "36.7608038"
    },
    {
        "id": "142400",
        "city": "Ногинск",
        "latitude": "55.8686239",
        "longitude": "38.4621635"
    },
    {
        "id": "143000",
        "city": "Одинцово",
        "latitude": "55.6789292",
        "longitude": "37.2636389"
    },
    {
        "id": "140560",
        "city": "Озеры",
        "latitude": "54.8539944",
        "longitude": "38.55987"
    },
    {
        "id": "142600",
        "city": "Орехово-Зуево",
        "latitude": "55.8151729",
        "longitude": "38.9870711"
    },
    {
        "id": "142500",
        "city": "Павловский Посад",
        "latitude": "55.7806718",
        "longitude": "38.6596047"
    },
    {
        "id": "141320",
        "city": "Пересвет",
        "latitude": "56.4158828",
        "longitude": "38.1733567"
    },
    {
        "id": "142100",
        "city": "Подольск",
        "latitude": "55.4389588",
        "longitude": "37.57027"
    },
    {
        "id": "142280",
        "city": "Протвино",
        "latitude": "54.8706614",
        "longitude": "37.2183307"
    },
    {
        "id": "141200",
        "city": "Пушкино",
        "latitude": "56.0104548",
        "longitude": "37.8471438"
    },
    {
        "id": "142290",
        "city": "Пущино",
        "latitude": "54.832521",
        "longitude": "37.6210428"
    },
    {
        "id": "140100",
        "city": "Раменское",
        "latitude": "55.549529",
        "longitude": "38.273015"
    },
    {
        "id": "143960",
        "city": "Реутов",
        "latitude": "55.758236",
        "longitude": "37.8619443"
    },
    {
        "id": "140730",
        "city": "Рошаль",
        "latitude": "55.6632504",
        "longitude": "39.8655434"
    },
    {
        "id": "143100",
        "city": "Руза",
        "latitude": "55.7015302",
        "longitude": "36.1960043"
    },
    {
        "id": "141300",
        "city": "Сергиев Посад",
        "latitude": "56.3063411",
        "longitude": "38.1502568"
    },
    {
        "id": "142200",
        "city": "Серпухов",
        "latitude": "54.9225396",
        "longitude": "37.4032682"
    },
    {
        "id": "141501",
        "city": "Солнечногорск",
        "latitude": "56.2148655",
        "longitude": "37.0967653"
    },
    {
        "id": "142450",
        "city": "Старая Купавна",
        "latitude": "55.8038411",
        "longitude": "38.1426144"
    },
    {
        "id": "142800",
        "city": "Ступино",
        "latitude": "54.9238403",
        "longitude": "38.1186976"
    },
    {
        "id": "141900",
        "city": "Талдом",
        "latitude": "56.7308993",
        "longitude": "37.5276414"
    },
    {
        "id": "141190",
        "city": "Фрязино",
        "latitude": "55.9590154",
        "longitude": "38.0409171"
    },
    {
        "id": "141400",
        "city": "Химки",
        "latitude": "55.8886705",
        "longitude": "37.4304154"
    },
    {
        "id": "141370",
        "city": "Хотьково",
        "latitude": "56.2515725",
        "longitude": "37.9395225"
    },
    {
        "id": "142432",
        "city": "Черноголовка",
        "latitude": "56.0100909",
        "longitude": "38.3792328"
    },
    {
        "id": "142300",
        "city": "Чехов",
        "latitude": "55.1507175",
        "longitude": "37.4532591"
    },
    {
        "id": "140700",
        "city": "Шатура",
        "latitude": "55.5777942",
        "longitude": "39.5443781"
    },
    {
        "id": "141100",
        "city": "Щелково",
        "latitude": "55.9234303",
        "longitude": "37.9784419"
    },
    {
        "id": "142530",
        "city": "Электрогорск",
        "latitude": "55.8778573",
        "longitude": "38.7805239"
    },
    {
        "id": "144000",
        "city": "Электросталь",
        "latitude": "55.7847718",
        "longitude": "38.4446531"
    },
    {
        "id": "142455",
        "city": "Электроугли",
        "latitude": "55.7170329",
        "longitude": "38.2194049"
    },
    {
        "id": "141840",
        "city": "Яхрома",
        "latitude": "56.2889858",
        "longitude": "37.4831016"
    },
    {
        "id": "184200",
        "city": "Апатиты",
        "latitude": "67.5678295",
        "longitude": "33.4067218"
    },
    {
        "id": "184670",
        "city": "Гаджиево",
        "latitude": "69.2490009",
        "longitude": "33.3152445"
    },
    {
        "id": "184310",
        "city": "Заозерск",
        "latitude": "69.4003895",
        "longitude": "32.4502225"
    },
    {
        "id": "184430",
        "city": "Заполярный",
        "latitude": "69.413232",
        "longitude": "30.7985332"
    },
    {
        "id": "184042",
        "city": "Кандалакша",
        "latitude": "67.1567298",
        "longitude": "32.4142303"
    },
    {
        "id": "184250",
        "city": "Кировск",
        "latitude": "67.6150979",
        "longitude": "33.6637196"
    },
    {
        "id": "184144",
        "city": "Ковдор",
        "latitude": "67.5661466",
        "longitude": "30.4742082"
    },
    {
        "id": "184380",
        "city": "Кола",
        "latitude": "68.8785079",
        "longitude": "33.0262014"
    },
    {
        "id": "184505",
        "city": "Мончегорск",
        "latitude": "67.9385206",
        "longitude": "32.9358886"
    },
    {
        "id": "183000",
        "city": "Мурманск",
        "latitude": "69.0076958",
        "longitude": "33.0686019"
    },
    {
        "id": "184530",
        "city": "Оленегорск",
        "latitude": "68.1422068",
        "longitude": "33.2670094"
    },
    {
        "id": "184640",
        "city": "Островной",
        "latitude": "68.0509133",
        "longitude": "39.5076034"
    },
    {
        "id": "184230",
        "city": "Полярные Зори",
        "latitude": "67.3730192",
        "longitude": "32.497541"
    },
    {
        "id": "184650",
        "city": "Полярный",
        "latitude": "69.1988373",
        "longitude": "33.4509985"
    },
    {
        "id": "184601",
        "city": "Североморск",
        "latitude": "69.0765029",
        "longitude": "33.4178354"
    },
    {
        "id": "184682",
        "city": "Снежногорск",
        "latitude": "69.1921469",
        "longitude": "33.2382821"
    },
    {
        "id": "166000",
        "city": "Нарьян-Мар",
        "latitude": "67.6381525",
        "longitude": "53.0069336"
    },
    {
        "id": "607220",
        "city": "Арзамас",
        "latitude": "55.3947544",
        "longitude": "43.8407855"
    },
    {
        "id": "606407",
        "city": "Балахна",
        "latitude": "56.4949932",
        "longitude": "43.5758953"
    },
    {
        "id": "607600",
        "city": "Богородск",
        "latitude": "56.1019905",
        "longitude": "43.513678"
    },
    {
        "id": "606440",
        "city": "Бор",
        "latitude": "56.3565179",
        "longitude": "44.0644851"
    },
    {
        "id": "606860",
        "city": "Ветлуга",
        "latitude": "57.8558395",
        "longitude": "45.7762692"
    },
    {
        "id": "606072",
        "city": "Володарск",
        "latitude": "56.2168974",
        "longitude": "43.1597623"
    },
    {
        "id": "606120",
        "city": "Ворсма",
        "latitude": "55.9900425",
        "longitude": "43.2719879"
    },
    {
        "id": "607060",
        "city": "Выкса",
        "latitude": "55.3207103",
        "longitude": "42.1679169"
    },
    {
        "id": "606125",
        "city": "Горбатов",
        "latitude": "56.1307901",
        "longitude": "43.0626829"
    },
    {
        "id": "606500",
        "city": "Городец",
        "latitude": "56.6447459",
        "longitude": "43.4722975"
    },
    {
        "id": "606000",
        "city": "Дзержинск",
        "latitude": "56.2376438",
        "longitude": "43.4599363"
    },
    {
        "id": "606520",
        "city": "Заволжье",
        "latitude": "56.6404237",
        "longitude": "43.3871565"
    },
    {
        "id": "606340",
        "city": "Княгинино",
        "latitude": "55.8205157",
        "longitude": "45.0322947"
    },
    {
        "id": "607650",
        "city": "Кстово",
        "latitude": "56.1433353",
        "longitude": "44.1665081"
    },
    {
        "id": "607010",
        "city": "Кулебаки",
        "latitude": "55.429716",
        "longitude": "42.512483"
    },
    {
        "id": "607800",
        "city": "Лукоянов",
        "latitude": "55.0327349",
        "longitude": "44.4933829"
    },
    {
        "id": "606210",
        "city": "Лысково",
        "latitude": "56.0262298",
        "longitude": "45.0356702"
    },
    {
        "id": "607100",
        "city": "Навашино",
        "latitude": "55.5439105",
        "longitude": "42.1887734"
    },
    {
        "id": "603000",
        "city": "Нижний Новгород",
        "latitude": "56.3242093",
        "longitude": "44.0053948"
    },
    {
        "id": "606100",
        "city": "Павлово",
        "latitude": "55.9797995",
        "longitude": "43.0996232"
    },
    {
        "id": "607751",
        "city": "Первомайск",
        "latitude": "54.8676182",
        "longitude": "43.8012829"
    },
    {
        "id": "607400",
        "city": "Перевоз",
        "latitude": "55.596904",
        "longitude": "44.5450268"
    },
    {
        "id": "607180",
        "city": "Саров",
        "latitude": "54.9227002",
        "longitude": "43.3447792"
    },
    {
        "id": "606605",
        "city": "Семенов",
        "latitude": "56.788935",
        "longitude": "44.4903571"
    },
    {
        "id": "607510",
        "city": "Сергач",
        "latitude": "55.5200364",
        "longitude": "45.4813193"
    },
    {
        "id": "606803",
        "city": "Урень",
        "latitude": "57.4612547",
        "longitude": "45.783394"
    },
    {
        "id": "606540",
        "city": "Чкаловск",
        "latitude": "56.7651549",
        "longitude": "43.2420193"
    },
    {
        "id": "606910",
        "city": "Шахунья",
        "latitude": "57.6764773",
        "longitude": "46.6129673"
    },
    {
        "id": "174400",
        "city": "Боровичи",
        "latitude": "58.3839866",
        "longitude": "33.9176761"
    },
    {
        "id": "175400",
        "city": "Валдай",
        "latitude": "57.9822906",
        "longitude": "33.2369492"
    },
    {
        "id": "173000",
        "city": "Великий Новгород",
        "latitude": "58.5214003",
        "longitude": "31.2755051"
    },
    {
        "id": "174260",
        "city": "Малая Вишера",
        "latitude": "58.8458076",
        "longitude": "32.2247984"
    },
    {
        "id": "174350",
        "city": "Окуловка",
        "latitude": "58.3908717",
        "longitude": "33.2902474"
    },
    {
        "id": "174510",
        "city": "Пестово",
        "latitude": "58.5973944",
        "longitude": "35.8144523"
    },
    {
        "id": "175040",
        "city": "Сольцы",
        "latitude": "58.1201693",
        "longitude": "30.309285"
    },
    {
        "id": "175200",
        "city": "Старая Русса",
        "latitude": "57.9906873",
        "longitude": "31.3555076"
    },
    {
        "id": "175270",
        "city": "Холм",
        "latitude": "57.1451036",
        "longitude": "31.1787812"
    },
    {
        "id": "174210",
        "city": "Чудово",
        "latitude": "59.1247477",
        "longitude": "31.6865406"
    },
    {
        "id": "632330",
        "city": "Барабинск",
        "latitude": "55.3515917",
        "longitude": "78.3465012"
    },
    {
        "id": "633000",
        "city": "Бердск",
        "latitude": "54.7582375",
        "longitude": "83.1072212"
    },
    {
        "id": "633340",
        "city": "Болотное",
        "latitude": "55.6693773",
        "longitude": "84.3906599"
    },
    {
        "id": "",
        "city": "Искитим",
        "latitude": "54.6266869",
        "longitude": "83.2951444"
    },
    {
        "id": "632860",
        "city": "Карасук",
        "latitude": "53.7343772",
        "longitude": "78.042457"
    },
    {
        "id": "632400",
        "city": "Каргат",
        "latitude": "55.1943829",
        "longitude": "80.2831324"
    },
    {
        "id": "632380",
        "city": "Куйбышев",
        "latitude": "55.4684104",
        "longitude": "78.3241042"
    },
    {
        "id": "632730",
        "city": "Купино",
        "latitude": "54.3660317",
        "longitude": "77.2972969"
    },
    {
        "id": "630000",
        "city": "Новосибирск",
        "latitude": "55.0281016",
        "longitude": "82.9210575"
    },
    {
        "id": "",
        "city": "Обь",
        "latitude": "54.9945882",
        "longitude": "82.6937925"
    },
    {
        "id": "632120",
        "city": "Татарск",
        "latitude": "55.2145894",
        "longitude": "75.9740805"
    },
    {
        "id": "633450",
        "city": "Тогучин",
        "latitude": "55.2250038",
        "longitude": "84.4103867"
    },
    {
        "id": "633520",
        "city": "Черепаново",
        "latitude": "54.2206974",
        "longitude": "83.3724392"
    },
    {
        "id": "632550",
        "city": "Чулым",
        "latitude": "55.0906205",
        "longitude": "80.9592152"
    },
    {
        "id": "646020",
        "city": "Исилькуль",
        "latitude": "54.9096156",
        "longitude": "71.2816107"
    },
    {
        "id": "646900",
        "city": "Калачинск",
        "latitude": "55.0598547",
        "longitude": "74.5655075"
    },
    {
        "id": "646100",
        "city": "Называевск",
        "latitude": "55.5688811",
        "longitude": "71.3502572"
    },
    {
        "id": "644000",
        "city": "Омск",
        "latitude": "54.9848136",
        "longitude": "73.3674638"
    },
    {
        "id": "646530",
        "city": "Тара",
        "latitude": "56.9159171",
        "longitude": "74.3649643"
    },
    {
        "id": "646330",
        "city": "Тюкалинск",
        "latitude": "55.8705121",
        "longitude": "72.1956156"
    },
    {
        "id": "461743",
        "city": "Абдулино",
        "latitude": "53.6778096",
        "longitude": "53.6473115"
    },
    {
        "id": "461630",
        "city": "Бугуруслан",
        "latitude": "53.6522636",
        "longitude": "52.4326166"
    },
    {
        "id": "461040",
        "city": "Бузулук",
        "latitude": "52.7881434",
        "longitude": "52.2623757"
    },
    {
        "id": "462631",
        "city": "Гай",
        "latitude": "51.4649138",
        "longitude": "58.4436189"
    },
    {
        "id": "462240",
        "city": "Кувандык",
        "latitude": "51.4784845",
        "longitude": "57.3612029"
    },
    {
        "id": "462271",
        "city": "Медногорск",
        "latitude": "51.4039421",
        "longitude": "57.5832185"
    },
    {
        "id": "462351",
        "city": "Новотроицк",
        "latitude": "51.1965071",
        "longitude": "58.3017455"
    },
    {
        "id": "460000",
        "city": "Оренбург",
        "latitude": "51.7875191",
        "longitude": "55.1017379"
    },
    {
        "id": "462400",
        "city": "Орск",
        "latitude": "51.2293069",
        "longitude": "58.4751889"
    },
    {
        "id": "461504",
        "city": "Соль-Илецк",
        "latitude": "51.1634976",
        "longitude": "54.9895391"
    },
    {
        "id": "461900",
        "city": "Сорочинск",
        "latitude": "52.4265081",
        "longitude": "53.1542123"
    },
    {
        "id": "462780",
        "city": "Ясный",
        "latitude": "51.0369499",
        "longitude": "59.8743256"
    },
    {
        "id": "303140",
        "city": "Болхов",
        "latitude": "53.4440204",
        "longitude": "36.0076969"
    },
    {
        "id": "303240",
        "city": "Дмитровск",
        "latitude": "52.5053481",
        "longitude": "35.141535"
    },
    {
        "id": "303850",
        "city": "Ливны",
        "latitude": "52.4285122",
        "longitude": "37.603944"
    },
    {
        "id": "303370",
        "city": "Малоархангельск",
        "latitude": "52.4001151",
        "longitude": "36.5037931"
    },
    {
        "id": "303030",
        "city": "Мценск",
        "latitude": "53.2790021",
        "longitude": "36.574992"
    },
    {
        "id": "303500",
        "city": "Новосиль",
        "latitude": "52.9747225",
        "longitude": "37.0438402"
    },
    {
        "id": "302000",
        "city": "Орёл",
        "latitude": "52.9672573",
        "longitude": "36.0696479"
    },
    {
        "id": "442250",
        "city": "Белинский",
        "latitude": "52.9641169",
        "longitude": "43.4185003"
    },
    {
        "id": "442310",
        "city": "Городище",
        "latitude": "53.2727888",
        "longitude": "45.702731"
    },
    {
        "id": "442960",
        "city": "Заречный",
        "latitude": "53.1961009",
        "longitude": "45.1691502"
    },
    {
        "id": "442240",
        "city": "Каменка",
        "latitude": "53.1855474",
        "longitude": "44.0468501"
    },
    {
        "id": "442530",
        "city": "Кузнецк",
        "latitude": "53.1131686",
        "longitude": "46.6052497"
    },
    {
        "id": "442150",
        "city": "Нижний Ломов",
        "latitude": "53.5301274",
        "longitude": "43.6729216"
    },
    {
        "id": "442317",
        "city": "Никольск",
        "latitude": "53.7138397",
        "longitude": "46.079962"
    },
    {
        "id": "440000",
        "city": "Пенза",
        "latitude": "53.1753884",
        "longitude": "45.0347408"
    },
    {
        "id": "442890",
        "city": "Сердобск",
        "latitude": "52.4697532",
        "longitude": "44.2122688"
    },
    {
        "id": "442600",
        "city": "Спасск",
        "latitude": "53.927163",
        "longitude": "43.1860475"
    },
    {
        "id": "442300",
        "city": "Сурск",
        "latitude": "53.0760597",
        "longitude": "45.6911897"
    },
    {
        "id": "618320",
        "city": "Александровск",
        "latitude": "59.1613773",
        "longitude": "57.5764851"
    },
    {
        "id": "618400",
        "city": "Березники",
        "latitude": "59.4079898",
        "longitude": "56.8040725"
    },
    {
        "id": "617119",
        "city": "Верещагино",
        "latitude": "58.0797908",
        "longitude": "54.6580948"
    },
    {
        "id": "618820",
        "city": "Горнозаводск",
        "latitude": "58.3743406",
        "longitude": "58.3230329"
    },
    {
        "id": "618270",
        "city": "Гремячинск",
        "latitude": "58.5625603",
        "longitude": "57.8520073"
    },
    {
        "id": "618250",
        "city": "Губаха",
        "latitude": "58.837024",
        "longitude": "57.5544441"
    },
    {
        "id": "618730",
        "city": "Добрянка",
        "latitude": "58.4696353",
        "longitude": "56.4131294"
    },
    {
        "id": "618350",
        "city": "Кизел",
        "latitude": "59.0511764",
        "longitude": "57.6471214"
    },
    {
        "id": "618590",
        "city": "Красновишерск",
        "latitude": "60.3902242",
        "longitude": "57.0537244"
    },
    {
        "id": "617060",
        "city": "Краснокамск",
        "latitude": "58.0820946",
        "longitude": "55.7479797"
    },
    {
        "id": "619000",
        "city": "Кудымкар",
        "latitude": "59.0168605",
        "longitude": "54.6573459"
    },
    {
        "id": "617470",
        "city": "Кунгур",
        "latitude": "57.4283217",
        "longitude": "56.9437787"
    },
    {
        "id": "618900",
        "city": "Лысьва",
        "latitude": "58.0995987",
        "longitude": "57.8085728"
    },
    {
        "id": "617000",
        "city": "Нытва",
        "latitude": "57.9337429",
        "longitude": "55.3357261"
    },
    {
        "id": "618120",
        "city": "Оса",
        "latitude": "57.2889992",
        "longitude": "55.4688982"
    },
    {
        "id": "618100",
        "city": "Оханск",
        "latitude": "57.7178946",
        "longitude": "55.387153"
    },
    {
        "id": "617140",
        "city": "Очер",
        "latitude": "57.8851991",
        "longitude": "54.7161756"
    },
    {
        "id": "614000",
        "city": "Пермь",
        "latitude": "58.0103211",
        "longitude": "56.2341778"
    },
    {
        "id": "618541",
        "city": "Соликамск",
        "latitude": "59.6483518",
        "longitude": "56.7710358"
    },
    {
        "id": "618460",
        "city": "Усолье",
        "latitude": "59.4279356",
        "longitude": "56.6837783"
    },
    {
        "id": "617760",
        "city": "Чайковский",
        "latitude": "56.7780203",
        "longitude": "54.1478482"
    },
    {
        "id": "618601",
        "city": "Чердынь",
        "latitude": "60.4011184",
        "longitude": "56.4801391"
    },
    {
        "id": "617040",
        "city": "Чермоз",
        "latitude": "58.7842527",
        "longitude": "56.1507562"
    },
    {
        "id": "617830",
        "city": "Чернушка",
        "latitude": "56.5161079",
        "longitude": "56.0763919"
    },
    {
        "id": "618200",
        "city": "Чусовой",
        "latitude": "58.2974725",
        "longitude": "57.8193122"
    },
    {
        "id": "692330",
        "city": "Арсеньев",
        "latitude": "44.16208",
        "longitude": "133.269622"
    },
    {
        "id": "692486",
        "city": "Артем",
        "latitude": "43.350053",
        "longitude": "132.1596594"
    },
    {
        "id": "692801",
        "city": "Большой Камень",
        "latitude": "43.1112737",
        "longitude": "132.3480354"
    },
    {
        "id": "690000",
        "city": "Владивосток",
        "latitude": "43.1163807",
        "longitude": "131.882348"
    },
    {
        "id": "692437",
        "city": "Дальнегорск",
        "latitude": "44.5539909",
        "longitude": "135.5662536"
    },
    {
        "id": "692130",
        "city": "Дальнереченск",
        "latitude": "45.9307882",
        "longitude": "133.7316542"
    },
    {
        "id": "692031",
        "city": "Лесозаводск",
        "latitude": "45.4780192",
        "longitude": "133.4185501"
    },
    {
        "id": "692900",
        "city": "Находка",
        "latitude": "42.8240404",
        "longitude": "132.8927812"
    },
    {
        "id": "692851",
        "city": "Партизанск",
        "latitude": "43.1279833",
        "longitude": "133.1264754"
    },
    {
        "id": "692230",
        "city": "Спасск-Дальний",
        "latitude": "44.5900929",
        "longitude": "132.8157564"
    },
    {
        "id": "692500",
        "city": "Уссурийск",
        "latitude": "43.79726",
        "longitude": "131.9517262"
    },
    {
        "id": "692880",
        "city": "Фокино",
        "latitude": "42.9707163",
        "longitude": "132.4110209"
    },
    {
        "id": "182100",
        "city": "Великие Луки",
        "latitude": "56.3321847",
        "longitude": "30.550757"
    },
    {
        "id": "181600",
        "city": "Гдов",
        "latitude": "58.7432585",
        "longitude": "27.8263328"
    },
    {
        "id": "182670",
        "city": "Дно",
        "latitude": "57.8269802",
        "longitude": "29.9629569"
    },
    {
        "id": "182500",
        "city": "Невель",
        "latitude": "56.0201544",
        "longitude": "29.9240505"
    },
    {
        "id": "182440",
        "city": "Новоржев",
        "latitude": "57.0298332",
        "longitude": "29.343333"
    },
    {
        "id": "182200",
        "city": "Новосокольники",
        "latitude": "56.3407627",
        "longitude": "30.1527712"
    },
    {
        "id": "182333",
        "city": "Опочка",
        "latitude": "56.7107956",
        "longitude": "28.6717455"
    },
    {
        "id": "181353",
        "city": "Остров",
        "latitude": "57.3452408",
        "longitude": "28.3437107"
    },
    {
        "id": "181502",
        "city": "Печоры",
        "latitude": "57.8146689",
        "longitude": "27.6222823"
    },
    {
        "id": "182620",
        "city": "Порхов",
        "latitude": "57.7764223",
        "longitude": "29.5436424"
    },
    {
        "id": "180000",
        "city": "Псков",
        "latitude": "57.819284",
        "longitude": "28.3318188"
    },
    {
        "id": "182300",
        "city": "Пустошка",
        "latitude": "56.3375131",
        "longitude": "29.3668243"
    },
    {
        "id": "181410",
        "city": "Пыталово",
        "latitude": "57.0637109",
        "longitude": "27.9234759"
    },
    {
        "id": "182250",
        "city": "Себеж",
        "latitude": "56.2907663",
        "longitude": "28.4725735"
    },
    {
        "id": "346780",
        "city": "Азов",
        "latitude": "47.1120631",
        "longitude": "39.4232597"
    },
    {
        "id": "346720",
        "city": "Аксай",
        "latitude": "47.2676075",
        "longitude": "39.8755485"
    },
    {
        "id": "346880",
        "city": "Батайск",
        "latitude": "47.138321",
        "longitude": "39.7508382"
    },
    {
        "id": "347040",
        "city": "Белая Калитва",
        "latitude": "48.176948",
        "longitude": "40.8033169"
    },
    {
        "id": "347360",
        "city": "Волгодонск",
        "latitude": "47.5165181",
        "longitude": "42.1984531"
    },
    {
        "id": "347870",
        "city": "Гуково",
        "latitude": "48.0449422",
        "longitude": "39.9484635"
    },
    {
        "id": "346330",
        "city": "Донецк",
        "latitude": "48.3350928",
        "longitude": "39.9460654"
    },
    {
        "id": "346310",
        "city": "Зверево",
        "latitude": "48.043451",
        "longitude": "40.1264948"
    },
    {
        "id": "347740",
        "city": "Зерноград",
        "latitude": "46.8494991",
        "longitude": "40.312765"
    },
    {
        "id": "347800",
        "city": "Каменск-Шахтинский",
        "latitude": "48.3204412",
        "longitude": "40.268874"
    },
    {
        "id": "347250",
        "city": "Константиновск",
        "latitude": "47.5773456",
        "longitude": "41.0967362"
    },
    {
        "id": "346350",
        "city": "Красный Сулин",
        "latitude": "47.8830826",
        "longitude": "40.0781385"
    },
    {
        "id": "346130",
        "city": "Миллерово",
        "latitude": "48.925821",
        "longitude": "40.3983302"
    },
    {
        "id": "347210",
        "city": "Морозовск",
        "latitude": "48.3511724",
        "longitude": "41.8308006"
    },
    {
        "id": "346400",
        "city": "Новочеркасск",
        "latitude": "47.4119248",
        "longitude": "40.1042066"
    },
    {
        "id": "346900",
        "city": "Новошахтинск",
        "latitude": "47.7576522",
        "longitude": "39.9364709"
    },